{
  "college": [
    { "longitude": 113.3, "latitude": 23.1, "name": "中山大学" },
    { "longitude": 113.34, "latitude": 23.13, "name": "暨南大学" },
    { "longitude": 113.4, "latitude": 23.05, "name": "华南理工大学" },
    { "longitude": 113.35, "latitude": 23.15, "name": "华南农业大学" },
    { "longitude": 113.4, "latitude": 23, "name": "广东工业大学" }
  ],
  "highSchool": [
    { "longitude": 113.34, "latitude": 23.13, "name": "华师附中" },
    { "longitude": 113.24, "latitude": 23.14, "name": "广雅中学" },
    { "longitude": 113.29, "latitude": 23.13, "name": "执信中学" },
    { "longitude": 113.23, "latitude": 23.08, "name": "省实中学" },
    { "longitude": 113.26, "latitude": 23.14, "name": "二中应元" }
  ],
  "middleSchool": [
    { "longitude": 113.24, "latitude": 23.14, "name": "广雅中学" },
    { "longitude": 113.24, "latitude": 23.15, "name": "真光中学" }
  ],
  "primarySchool": [
    { "longitude": 113.24, "latitude": 23.12, "name": "西关培正小学" },
    { "longitude": 113.23, "latitude": 23.1, "name": "康有为纪念小学" },
    { "longitude": 113.25, "latitude": 23.11, "name": "沙面小学" }
  ],
  "kinderGarden": [
    { "longitude": 113.24, "latitude": 23.11, "name": "多宝幼儿园" }
  ],
  "hospital": [
    { "longitude": 113.25, "latitude": 23.11, "name": "省中医" },
    { "longitude": 113.29, "latitude": 23.14, "name": "第二中医院" },
    { "longitude": 113.29, "latitude": 23.12, "name": "中山大学肿瘤防治院" }
  ],
  "pharmacy": [
    { "longitude": 113.27, "latitude": 23.14, "name": "大参林（小北路店）" },
    { "longitude": 113.25, "latitude": 23.11, "name": "大参林（十八甫店）" },
    { "longitude": 113.40, "latitude": 23.12, "name": "大参林（车陂东店）" }
  ],
  "library": [
    { "longitude": 113.28, "latitude": 23.13, "name": "中山图书馆" },
    { "longitude": 113.33, "latitude": 23.12, "name": "广州图书馆" }
  ],
  "cultural": [
    { "longitude": 113.29, "latitude": 23.12, "name": "越秀区文化馆" },
    { "longitude": 113.31, "latitude": 23.15, "name": "广东省文化馆" }
  ],
  "museum": [
    { "longitude": 113.27, "latitude": 23.13, "name": "南越王博物馆" },
    { "longitude": 113.33, "latitude": 23.12, "name": "广东省博物馆" }
  ],
  "hotel": [
    { "longitude": 113.35, "latitude": 23.12, "name": "广州W酒店" },
    { "longitude": 113.27, "latitude": 23.15, "name": "广州天河希尔顿酒店" },
    { "longitude": 113.24, "latitude": 23.11, "name": "白天鹅宾馆" },
    { "longitude": 113.33, "latitude": 23.12, "name": "广州富力丽思卡尔顿酒店" },
    { "longitude": 113.32, "latitude": 23.12, "name": "粤海喜来登酒店" }
  ],
  "lowRisk": [],
  "mediumRisk": [],
  "highRisk": []
}